,*4C
$GPGSA,A,1,,,,,,,,,,,,,,,*1E
$GPGSV,1,1,03,09,,,41,06,,,45,23,,,47*73
$GPRMC,152018.092,V,,,,,0.00,0.00,100180,,,N*41

$GPGGA,152019.092,,,,,0,0,,,M,,M,,*4D
$GPGSA,A,1,,,,,,,,,,,,,,,*1E
$GPGSV,1,1,03,09,,,40,06,,,45,23,,,47*72
$GPRMC,152019.092,V,,,,,0.00,0.00,100180,,,N*40

$GPGGA,152020.091,,,,,0,0,,,M,,M,,*44
$GPGSA,A,1,,,,,,,,,,,,,,,*1E
$GPGSV,1,1,03,09,,,39,06,,,45,23,,,47*7C
$GPRMC,152020.091,V,,,,,0.00,0.00,100180,,,N*49

$GPGGA,152021.091,,,,,0,0,,,M,,M,,*45
$GPGSA,A,1,,,,,,,,,,,,,,,*1E
$GPGSV,1,1,03,09,,,38,06,,,45,23,,,47*7D
$GPRMC,152021.091,V,,,,,0.00,0.00,100180,,,N*48

$GPGGA,152022.091,,,,,0,0,,,M,,M,,*46
$GPGSA,A,1,,,,,,,,,,,,,,,*1E
$GPGSV,1,1,03,09,,,38,06,,,45,23,,,47*7D
$GPRMC,152022.091,V,,,,,0.00,0.00,100180,,,N*4B

$GPGGA,152023.091,,,,,0,0,,,M,,M,,*47
$GPGSA,A,1,,,,,,,,,,,,,,,*1E
$GPGSV,1,1,03,09,,,38,06,,,45,23,,,47*7D
$GPRMC,152023.091,V,,,,,0.00,0.00,100180,,,N*4A

$GPGGA,152024.091,,,,,0,0,,,M,,M,,*40
$GPGSA,A,1,,,,,,,,,,,,,,,*1E
$GPGSV,1,1,03,09,,,38,06,,,45,23,,,47*7D
$GPRMC,152024.091,V,,,,,0.00,0.00,100180,,,N*4D

$GPGGA,152025.091,,,,,0,0,,,M,,M,,*41
$GPGSA,A,1,,,,,,,,,,,,,,,*1E
$GPGSV,1,1,03,09,,,38,06,,,45,23,,,47*7D
$GPRMC,152025.091,V,,,,,0.00,0.00,100180,,,N*4C

$GPGGA,152026.091,,,,,0,0,,,M,,M,,*42
$GPGSA,A,1,,,,,,,,,,,,,,,*1E
$GPGSV,1,1,03,09,,,38,06,,,45,23,,,47*7D
$GPRMC,152026.091,V,,,,,0.00,0.00,100180,,,N*4F

$GPGGA,152027.091,,,,,0,0,,,M,,M,,*43
$GPGSA,A,1,,,,,,,,,,,,,,,*1E
$GPGSV,1,1,03,09,,,38,06,,,45,23,,,47*7D
$GPRMC,152027.091,V,,,,,0.00,0.00,100180,,,N*4E

$GPGGA,152028.091,,,,,0,0,,,M,,M,,*4C
$GPGSA,A,1,,,,,,,,,,,,,,,*1E
$GPGSV,1,1,03,09,,,38,06,,,45,23,,,47*7D
$GPRMC,152028.091,V,,,,,0.00,0.00,100180,,,N*41

$GPGGA,152029.091,,,,,0,0,,,M,,M,,*4D
$GPGSA,A,1,,,,,,,,,,,,,,,*1E
$GPGSV,1,1,04,09,,,38,06,,,45,03,,,40,23,,,47*7D
$GPRMC,152029.091,V,,,,,0.00,0.00,100180,,,N*40

$GPGGA,152030.091,,,,,0,0,,,M,,M,,*45
$GPGSA,A,1,,,,,,,,,,,,,,,*1E
$GPGSV,1,1,04,09,,,38,06,,,45,03,,,42,23,,,47*7F
$GPRMC,152030.091,V,,,,,0.00,0.00,100180,,,N*48

$GPGGA,152031.091,,,,,0,0,,,M,,M,,*44
$GPGSA,A,1,,,,,,,,,,,,,,,*1E
$GPGSV,1,1,04,09,,,39,06,,,45,03,,,41,23,,,47*7D
$GPRMC,152031.091,V,,,,,0.00,0.00,100180,,,N*49

$GPGGA,152032.090,,,,,0,3,,,M,,M,,*45
$GPGSA,A,1,,,,,,,,,,,,,,,*1E
$GPGSV,1,1,04,09,,,40,06,,,45,03,,,42,23,,,47*70
$GPRMC,152032.090,V,,,,,0.28,0.00,190919,,,N*40

$GPGGA,152033.090,,,,,0,3,,,M,,M,,*44
$GPGSA,A,1,,,,,,,,,,,,,,,*1E
$GPGSV,1,1,04,23,83,239,47,09,46,259,42,06,38,289,45,03,,,41*46
$GPRMC,152033.090,V,,,,,0.38,0.00,190919,,,N*40


$GPGGA,152035.000,,,,,0,3,,,M,,M,,*4B
$GPGSA,A,1,,,,,,,,,,,,,,,*1E
$GPGSV,2,1,05,23,83,239,47,09,46,259,43,06,38,289,45,03,,,41*45
$GPGSV,2,2,05,26,,,30*7B
$GPRMC,152035.000,V,,,,,0.14,0.00,190919,,,N*41

$GPGGA,152036.000,5538.6790,N,03740.3021,E,1,3,4.40,135.6,M,14.4,M,,*5F
$GPGSA,A,2,09,06,23,,,,,,,,,,4.51,4.40,1.00*0C
$GPGSV,2,1,05,23,83,239,47,09,46,259,44,06,38,289,45,03,,,41*42
$GPGSV,2,2,05,26,,,31*7A
$GPRMC,152036.000,A,5538.6790,N,03740.3021,E,0.19,0.00,190919,,,A*6F

$GPGGA,152037.000,5538.6790,N,03740.3032,E,1,3,4.40,135.6,M,14.4,M,,*5C
$GPGSA,A,2,09,06,23,,,,,,,,,,4.51,4.40,1.00*0C
$GPGSV,2,1,05,23,83,239,47,09,46,259,44,06,38,289,46,03,,,41*41
$GPGSV,2,2,05,26,,,31*7A
$GPRMC,152037.000,A,5538.6790,N,03740.3032,E,0.11,0.00,190919,,,A*64

$GPGGA,152038.000,5538.6789,N,03740.3029,E,1,3,4.40,135.6,M,14.4,M,,*51
$GPGSA,A,2,09,06,23,,,,,,,,,,4.51,4.40,1.00*0C
$GPGSV,2,1,05,23,83,239,47,09,46,259,44,06,38,289,46,03,,,41*41
$GPGSV,2,2,05,26,,,32*79
$GPRMC,152038.000,A,5538.6789,N,03740.3029,E,0.07,0.00,190919,,,A*6E
$GPGGA,152038.211,5538.6788,N,03740.3027,E,1,3,4.40,135.6,M,14.4,M,,*5C
$GPGSA,A,2,09,06,23,,,,,,,,,,4.51,4.40,1.00*0C
$GPGSV,2,1,05,23,83,239,47,09,46,259,44,06,38,289,46,03,,,41*41
$GPGSV,2,2,05,26,,,33*78
$GPRMC,152038.211,A,5538.6788,N,03740.3027,E,0.07,0.00,190919,,,A*63


$GPGGA,152040.000,5538.6784,N,03740.3027,E,1,3,4.41,135.6,M,14.4,M,,*5C
$GPGSA,A,2,09,06,23,,,,,,,,,,4.52,4.41,1.00*0E
$GPGSV,2,1,05,23,83,239,47,09,46,259,44,06,38,289,46,03,,,41*41
$GPGSV,2,2,05,26,,,33*78
$GPRMC,152040.000,A,5538.6784,N,03740.3027,E,0.03,0.00,190919,,,A*66

$GPGGA,152041.000,5538.6780,N,03740.3026,E,1,3,48.50,135.6,M,14.4,M,,*60
$GPGSA,A,2,09,06,23,,,,,,,,,,99.99,48.50,92.55*3F
$GPGSV,2,1,05,23,83,239,47,09,46,259,44,06,38,289,46,03,,,41*41
$GPGSV,2,2,05,26,,,32*79
$GPRMC,152041.000,A,5538.6780,N,03740.3026,E,0.21,0.00,190919,,,A*62

$GPGGA,152042.000,5538.6778,N,03740.3032,E,1,3,4.40,135.6,M,14.4,M,,*58
$GPGSA,A,2,09,06,23,,,,,,,,,,4.52,4.40,1.00*0F
$GPGSV,2,1,05,23,83,239,47,09,46,259,44,06,38,289,46,03,,,41*41
$GPGSV,2,2,05,26,,,32*79
$GPRMC,152042.000,A,5538.6778,N,03740.3032,E,0.31,0.00,190919,,,A*62

$GPGGA,152043.000,5538.6781,N,03740.3029,E,1,3,4.41,135.6,M,14.4,M,,*54
$GPGSA,A,2,09,06,23,,,,,,,,,,4.52,4.41,1.00*0E
$GPGSV,2,1,05,23,83,239,47,09,46,259,44,06,38,289,46,03,,,41*41
$GPGSV,2,2,05,26,,,31*7A
$GPRMC,152043.000,A,5538.6781,N,03740.3029,E,0.21,0.00,190919,,,A*6E

$GPGGA,152044.000,5538.6788,N,03740.3026,E,1,3,4.41,135.6,M,14.4,M,,*55
$GPGSA,A,2,09,06,23,,,,,,,,,,4.52,4.41,1.00*0E
$GPGSV,2,1,05,23,83,239,47,09,46,259,45,06,38,289,47,03,,,42*42
$GPGSV,2,2,05,26,,,30*7B
$GPRMC,152044.000,A,5538.6788,N,03740.3026,E,0.14,0.00,190919,,,A*69
$GPGGA,152044.211,5538.6796,N,03740.3025,E,1,3,4.41,135.6,M,14.4,M,,*5B
$GPGSA,A,2,09,06,23,,,,,,,,,,4.52,4.41,1.00*0E
$GPGSV,2,1,05,23,83,239,47,09,46,259,45,06,38,289,47,03,,,42*42
$GPGSV,2,2,05,26,,,30*7B
$GPRMC,152044.211,A,5538.6796,N,03740.3025,E,0.15,0.00,190919,,,A*66


$GPGGA,152046.000,5538.6804,N,03740.3018,E,1,3,4.41,135.6,M,14.4,M,,*51
$GPGSA,A,2,09,06,23,,,,,,,,,,4.53,4.41,1.00*0F
$GPGSV,2,1,05,23,83,239,47,09,46,259,45,06,38,289,47,03,,,42*42
$GPGSV,2,2,05,26,,,30*7B
$GPRMC,152046.000,A,5538.6804,N,03740.3018,E,0.25,0.00,190919,,,A*6F

$GPGGA,152047.000,5538.6813,N,03740.3016,E,1,3,4.41,135.6,M,14.4,M,,*58
$GPGSA,A,2,09,06,23,,,,,,,,,,4.53,4.41,1.00*0F
$GPGSV,2,1,05,23,83,239,47,09,46,259,43,06,38,289,46,03,,,42*45
$GPGSV,2,2,05,26,,,30*7B
$GPRMC,152047.000,A,5538.6813,N,03740.3016,E,0.24,0.00,190919,,,A*67

$GPGGA,152048.000,5538.6820,N,03740.3012,E,1,3,4.42,135.7,M,14.4,M,,*51
$GPGSA,A,2,09,06,23,,,,,,,,,,4.53,4.42,1.00*0C
$GPGSV,2,1,05,23,83,239,47,09,46,259,42,06,38,289,45,03,,,42*47
$GPGSV,2,2,05,26,,,30*7B
$GPRMC,152048.000,A,5538.6820,N,03740.3012,E,0.26,0.00,190919,,,A*6E

$GPGGA,152049.000,5538.6826,N,03740.3007,E,1,3,4.42,135.7,M,14.4,M,,*52
$GPGSA,A,2,09,06,23,,,,,,,,,,4.53,4.42,1.00*0C
$GPGSV,2,1,05,23,83,239,47,09,46,259,41,06,38,289,45,03,,,42*44
$GPGSV,2,2,05,26,,,31*7A
$GPRMC,152049.000,A,5538.6826,N,03740.3007,E,0.27,0.00,190919,,,A*6C

$GPGGA,152050.000,5538.6831,N,03740.3006,E,1,3,4.42,135.7,M,14.4,M,,*5D
$GPGSA,A,2,09,06,23,,,,,,,,,,4.53,4.42,1.00*0C
$GPGSV,2,1,05,23,83,239,47,09,46,259,41,06,38,289,45,03,,,42*44
$GPGSV,2,2,05,26,,,32*79
$GPRMC,152050.000,A,5538.6831,N,03740.3006,E,0.31,0.00,190919,,,A*64
$GPGGA,152050.206,5538.6837,N,03740.3005,E,1,3,4.42,135.7,M,14.4,M,,*5C
$GPGSA,A,2,09,06,23,,,,,,,,,,4.53,4.42,1.00*0C
$GPGSV,2,1,05,23,83,239,47,09,46,259,41,06,38,289,45,03,,,42*44
$GPGSV,2,2,05,26,,,32*79
$GPRMC,152050.206,A,5538.6837,N,03740.3005,E,0.32,0.00,190919,,,A*66


$GPGGA,152052.000,5538.6844,N,03740.3006,E,1,3,4.42,135.7,M,14.4,M,,*5D
$GPGSA,A,2,09,06,23,,,,,,,,,,4.53,4.42,1.00*0C
$GPGSV,2,1,05,23,83,239,47,09,46,259,42,06,38,289,45,03,,,41*44
$GPGSV,2,2,05,26,,,32*79
$GPRMC,152052.000,A,5538.6844,N,03740.3006,E,0.10,0.00,190919,,,A*67

$GPGGA,152053.000,5538.6851,N,03740.3008,E,1,3,4.43,135.7,M,14.4,M,,*57
$GPGSA,A,2,09,06,23,,,,,,,,,,4.54,4.43,1.00*0A
$GPGSV,2,1,05,23,83,239,47,09,46,259,42,06,38,289,45,03,,,41*44
$GPGSV,2,2,05,26,,,32*79
$GPRMC,152053.000,A,5538.6851,N,03740.3008,E,0.11,0.00,190919,,,A*6D

$GPGGA,152054.000,5538.6854,N,03740.3009,E,1,3,4.43,135.7,M,14.4,M,,*54
$GPGSA,A,2,09,06,23,,,,,,,,,,4.54,4.43,1.00*0A
$GPGSV,2,1,05,23,83,239,47,09,46,259,42,06,38,289,45,03,,,41*44
$GPGSV,2,2,05,26,,,32*79
$GPRMC,152054.000,A,5538.6854,N,03740.3009,E,0.11,0.00,190919,,,A*6E

$GPGGA,152055.000,5538.6855,N,03740.3011,E,1,3,4.43,135.7,M,14.4,M,,*5D
$GPGSA,A,2,09,06,23,,,,,,,,,,4.54,4.43,1.00*0A
$GPGSV,2,1,05,23,83,239,47,09,46,259,42,06,38,289,45,03,,,40*45
$GPGSV,2,2,05,26,,,32*79
$GPRMC,152055.000,A,5538.6855,N,03740.3011,E,0.14,0.00,190919,,,A*62

$GPGGA,152056.000,5538.6850,N,03740.3010,E,1,3,4.43,135.7,M,14.4,M,,*5A
$GPGSA,A,2,09,06,23,,,,,,,,,,4.54,4.43,1.00*0A
$GPGSV,2,1,05,23,83,239,47,09,46,259,43,06,38,289,45,03,,,39*4A
$GPGSV,2,2,05,26,,,32*79
$GPRMC,152056.000,A,5538.6850,N,03740.3010,E,0.62,188.20,190919,,,A*67
$GPGGA,152056.206,5538.6850,N,03740.3012,E,1,3,4.43,135.7,M,14.4,M,,*5C
$GPGSA,A,2,09,06,23,,,,,,,,,,4.54,4.43,1.00*0A
$GPGSV,2,1,05,23,83,239,47,09,46,259,44,06,38,289,45,03,,,39*4D
$GPGSV,2,2,05,26,,,31*7A
$GPRMC,152056.206,A,5538.6850,N,03740.3012,E,0.64,188.90,190919,,,A*6C


$GPGGA,152058.000,5538.6851,N,03740.3015,E,1,3,4.43,135.7,M,14.4,M,,*50
$GPGSA,A,2,09,06,23,,,,,,,,,,4.54,4.43,1.00*0A
$GPGSV,2,1,05,23,84,239,47,09,46,259,44,06,38,289,45,03,,,40*44
$GPGSV,2,2,05,26,,,30*7B
$GPRMC,152058.000,A,5538.6851,N,03740.3015,E,0.46,188.90,190919,,,A*60

$GPGGA,152059.000,5538.6857,N,03740.3018,E,1,3,4.44,135.7,M,14.4,M,,*5D
$GPGSA,A,2,09,06,23,,,,,,,,,,4.55,4.44,1.00*0C
$GPGSV,2,1,05,23,84,239,46,09,46,259,44,06,38,289,45,03,,,40*45
$GPGSV,2,2,05,26,,,30*7B
$GPRMC,152059.000,A,5538.6857,N,03740.3018,E,0.10,188.90,190919,,,A*69

$GPGGA,152100.000,5538.6865,N,03740.3017,E,1,3,4.44,135.7,M,14.4,M,,*5E
$GPGSA,A,2,09,06,23,,,,,,,,,,4.55,4.44,1.00*0C
$GPGSV,2,1,05,23,84,239,46,09,46,259,44,06,38,289,45,03,,,40*45
$GPGSV,2,2,05,26,,,30*7B
$GPRMC,152100.000,A,5538.6865,N,03740.3017,E,0.31,188.90,190919,,,A*69

$GPGGA,152101.000,5538.6871,N,03740.3018,E,1,3,48.39,135.7,M,14.4,M,,*67
$GPGSA,A,2,09,06,23,,,,,,,,,,99.99,48.39,92.64*32
$GPGSV,2,1,05,23,84,239,46,09,46,259,44,06,38,289,45,03,,,40*45
$GPGSV,2,2,05,26,,,30*7B
$GPRMC,152101.000,A,5538.6871,N,03740.3018,E,0.30,188.90,190919,,,A*63

$GPGGA,152102.000,5538.6876,N,03740.3018,E,1,3,48.39,135.7,M,14.4,M,,*63
$GPGSA,A,2,09,06,23,,,,,,,,,,99.99,48.39,92.64*32
$GPGSV,2,1,05,23,84,239,46,09,46,259,44,06,38,289,45,03,,,40*45
$GPGSV,2,2,05,26,,,29*73
$GPRMC,152102.000,A,5538.6876,N,03740.3018,E,0.28,188.90,190919,,,A*6E
$GPGGA,152102.213,5538.7008,N,03740.2798,E,1,5,2.06,180.2,M,14.4,M,,*52
$GPGSA,A,3,09,06,03,23,26,,,,,,,,2.27,2.06,0.96*07
$GPGSV,2,1,06,23,84,239,46,03,54,147,40,09,46,259,44,06,38,289,45*75
$GPGSV,2,2,06,26,27,084,28,39,25,195,*78
$GPRMC,152102.213,A,5538.7008,N,03740.2798,E,0.14,188.90,190919,,,A*6F


$GPGGA,152104.000,5538.7005,N,03740.2797,E,1,5,2.06,180.3,M,14.4,M,,*57
$GPGSA,A,3,09,06,03,23,26,,,,,,,,2.27,2.06,0.96*07
$GPGSV,2,1,06,23,84,239,46,03,54,147,40,09,46,259,44,06,38,289,45*75
$GPGSV,2,2,06,26,27,084,28,39,25,195,*78
$GPRMC,152104.000,A,5538.7005,N,03740.2797,E,0.14,188.90,190919,,,A*6B

$GPGGA,152105.000,5538.7002,N,03740.2797,E,1,5,2.06,180.6,M,14.4,M,,*54
$GPGSA,A,3,09,06,03,23,26,,,,,,,,2.27,2.06,0.96*07
$GPGSV,2,1,06,23,84,239,46,03,54,147,40,09,46,259,44,06,38,289,45*75
$GPGSV,2,2,06,26,27,084,28,39,25,195,*78
$GPRMC,152105.000,A,5538.7002,N,03740.2797,E,0.32,188.90,190919,,,A*69

$GPGGA,152106.000,5538.6996,N,03740.2799,E,1,5,2.06,180.5,M,14.4,M,,*5F
$GPGSA,A,3,09,06,03,23,26,,,,,,,,2.27,2.06,0.96*07
$GPGSV,2,1,07,23,84,239,46,03,54,147,40,09,46,259,44,06,38,289,45*74
$GPGSV,2,2,07,26,27,084,28,39,25,195,,16,,,28*74
$GPRMC,152106.000,A,5538.6996,N,03740.2799,E,0.32,188.90,190919,,,A*61

$GPGGA,152107.000,5538.6991,N,03740.2797,E,1,5,2.06,180.8,M,14.4,M,,*5A
$GPGSA,A,3,09,06,03,23,26,,,,,,,,2.27,2.06,0.96*07
$GPGSV,2,1,07,23,84,239,46,03,54,147,40,09,46,259,44,06,38,289,45*74
$GPGSV,2,2,07,26,27,084,29,39,25,195,,16,,,30*7C
$GPRMC,152107.000,A,5538.6991,N,03740.2797,E,0.15,188.90,190919,,,A*6C

$GPGGA,152108.000,5538.6990,N,03740.2798,E,1,5,2.06,180.9,M,14.4,M,,*5A
$GPGSA,A,3,09,06,03,23,26,,,,,,,,2.27,2.06,0.96*07
$GPGSV,2,1,08,23,84,239,46,03,54,147,40,09,46,259,43,06,38,289,45*7C
$GPGSV,2,2,08,26,27,084,30,39,25,195,,16,,,30,22,,,28*71
$GPRMC,152108.000,A,5538.6990,N,03740.2798,E,0.14,188.90,190919,,,A*6C

$GPGGA,152109.000,5538.6988,N,03740.2796,E,1,5,2.06,180.9,M,14.4,M,,*5C
$GPGSA,A,3,09,06,03,23,26,,,,,,,,2.27,2.06,0.96*07
$GPGSV,2,1,08,23,84,239,46,03,54,147,39,09,46,259,42,06,38,289,45*73
$GPGSV,2,2,08,26,27,084,31,39,25,195,,16,,,32,22,,,34*7F
$GPRMC,152109.000,A,5538.6988,N,03740.2796,E,0.14,188.90,190919,,,A*6A

$GPGGA,152110.000,5538.6987,N,03740.2795,E,1,5,2.06,180.8,M,14.4,M,,*59
$GPGSA,A,3,09,06,03,23,26,,,,,,,,2.27,2.06,0.96*07
$GPGSV,2,1,08,23,84,239,47,03,54,147,40,09,46,259,42,06,38,289,45*7C
$GPGSV,2,2,08,26,27,084,31,39,25,195,,16,,,30,22,,,32*7B
$GPRMC,152110.000,A,5538.6987,N,03740.2795,E,0.13,188.90,190919,,,A*69

$GPGGA,152111.000,5538.6984,N,03740.2792,E,1,5,2.06,181.1,M,14.4,M,,*54
$GPGSA,A,3,09,06,03,23,26,,,,,,,,2.27,2.06,0.96*07
$GPGSV,2,1,08,23,84,239,47,03,54,147,40,09,46,259,41,06,38,289,45*7F
$GPGSV,2,2,08,26,27,084,32,39,25,195,,16,,,31,22,,,32*79
$GPRMC,152111.000,A,5538.6984,N,03740.2792,E,0.09,188.90,190919,,,A*67

$GPGGA,152112.000,5538.6980,N,03740.2789,E,1,5,2.06,181.0,M,14.4,M,,*58
$GPGSA,A,3,09,06,03,23,26,,,,,,,,2.27,2.06,0.96*07
$GPGSV,2,1,08,23,84,239,47,03,54,147,41,09,46,259,41,06,38,289,45*7E
$GPGSV,2,2,08,26,27,084,32,37,24,199,,16,,,31,22,,,32*7A
$GPRMC,152112.000,A,5538.6980,N,03740.2789,E,0.08,188.90,190919,,,A*6B

$GPGGA,152113.000,5538.6975,N,03740.2787,E,1,5,2.06,180.9,M,14.4,M,,*55
$GPGSA,A,3,09,06,03,23,26,,,,,,,,2.27,2.06,0.96*07
$GPGSV,2,1,08,23,84,239,47,03,54,147,41,09,46,259,41,06,38,289,45*7E
$GPGSV,2,2,08,26,27,084,32,37,24,199,,16,,,32,22,,,32*79
$GPRMC,152113.000,A,5538.6975,N,03740.2787,E,0.06,188.90,190919,,,A*60

$GPGGA,152114.000,5538.6972,N,03740.2784,E,1,5,2.06,181.2,M,14.4,M,,*5C
$GPGSA,A,3,09,06,03,23,26,,,,,,,,2.27,2.06,0.96*07
$GPGSV,2,1,08,23,84,239,47,03,54,147,41,09,46,259,40,06,38,289,45*7F
$GPGSV,2,2,08,26,27,084,32,37,24,199,,16,,,32,22,,,32*79
$GPRMC,152114.000,A,5538.6972,N,03740.2784,E,0.04,188.90,190919,,,A*61

$GPGGA,152115.000,5538.6967,N,03740.2780,E,1,5,2.06,181.2,M,14.4,M,,*5D
$GPGSA,A,3,09,06,03,23,26,,,,,,,,2.27,2.06,0.96*07
$GPGSV,2,1,08,23,84,239,47,03,54,147,41,09,46,259,40,06,38,289,45*7F
$GPGSV,2,2,08,26,27,084,33,37,24,199,,16,,,32,22,,,32*78
$GPRMC,152115.000,A,5538.6967,N,03740.2780,E,0.06,188.90,190919,,,A*62

$GPGGA,152116.000,5538.6963,N,03740.2775,E,1,5,2.05,181.2,M,14.4,M,,*53
$GPGSA,A,3,09,06,03,23,26,,,,,,,,2.27,2.05,0.96*04
$GPGSV,2,1,08,23,84,239,47,03,54,147,41,09,46,259,40,06,38,289,45*7F
$GPGSV,2,2,08,26,27,084,33,37,24,199,,16,,,32,22,,,32*78
$GPRMC,152116.000,A,5538.6963,N,03740.2775,E,0.27,188.90,190919,,,A*6C

$GPGGA,152117.000,5538.6960,N,03740.2772,E,1,5,2.05,181.3,M,14.4,M,,*57
$GPGSA,A,3,09,06,03,23,26,,,,,,,,2.27,2.05,0.96*04
$GPGSV,2,1,08,23,84,239,47,03,54,147,41,09,46,259,40,06,38,289,45*7F
$GPGSV,2,2,08,26,27,084,33,37,24,199,,16,,,32,22,,,32*78
$GPRMC,152117.000,A,5538.6960,N,03740.2772,E,0.29,188.90,190919,,,A*67

$GPGGA,152118.000,5538.6958,N,03740.2771,E,1,5,2.05,181.4,M,14.4,M,,*57
$GPGSA,A,3,09,06,03,23,26,,,,,,,,2.27,2.05,0.96*04
$GPGSV,2,1,08,23,84,239,47,03,54,147,41,09,46,259,40,06,39,289,45*7E
$GPGSV,2,2,08,26,27,084,33,37,24,199,,16,,,31,22,,,32*7B
$GPRMC,152118.000,A,5538.6958,N,03740.2771,E,0.30,188.90,190919,,,A*68

$GPGGA,152119.000,5538.6955,N,03740.2769,E,1,5,2.05,181.4,M,14.4,M,,*52
$GPGSA,A,3,09,06,03,23,26,,,,,,,,2.27,2.05,0.96*04
$GPGSV,2,1,08,23,84,239,47,03,54,147,41,09,46,259,40,06,39,289,45*7E
$GPGSV,2,2,08,26,27,084,33,37,24,199,,16,,,31,22,,,32*7B
$GPRMC,152119.000,A,5538.6955,N,03740.2769,E,0.30,188.90,190919,,,A*6D

$GPGGA,152120.000,5538.6954,N,03740.2768,E,1,5,2.05,181.4,M,14.4,M,,*58
$GPGSA,A,3,09,06,03,23,26,,,,,,,,2.27,2.05,0.96*04
$GPGSV,2,1,08,23,84,239,47,03,54,147,41,09,46,259,40,06,39,289,45*7E
$GPGSV,2,2,08,26,27,084,32,37,24,199,,16,,,31,22,,,32*7A
$GPRMC,152120.000,A,5538.6954,N,03740.2768,E,0.12,188.90,190919,,,A*67

$GPGGA,152121.000,5538.6954,N,03740.2768,E,1,5,2.05,181.4,M,14.4,M,,*59
$GPGSA,A,3,09,06,03,23,26,,,,,,,,2.27,2.05,0.96*04
$GPGSV,2,1,08,23,84,239,47,03,54,147,41,09,46,259,40,06,39,289,45*7E
$GPGSV,2,2,08,26,27,084,32,40,22,149,,16,,,31,22,,,32*71
$GPRMC,152121.000,A,5538.6954,N,03740.2768,E,0.05,188.90,190919,,,A*60

$GPGGA,152122.000,5538.6954,N,03740.2767,E,1,5,2.05,181.4,M,14.4,M,,*55
$GPGSA,A,3,09,06,03,23,26,,,,,,,,2.27,2.05,0.96*04
$GPGSV,2,1,08,23,84,239,47,03,54,147,41,09,46,259,40,06,39,289,45*7E
$GPGSV,2,2,08,26,27,084,32,40,22,149,,16,,,31,22,,,32*71
$GPRMC,152122.000,A,5538.6954,N,03740.2767,E,0.09,188.90,190919,,,A*60

$GPGGA,152123.000,5538.6954,N,03740.2767,E,1,5,2.05,181.4,M,14.4,M,,*54
$GPGSA,A,3,09,06,03,23,26,,,,,,,,2.27,2.05,0.96*04
$GPGSV,2,1,08,23,84,239,47,03,54,147,41,09,46,259,40,06,39,289,45*7E
$GPGSV,2,2,08,26,27,084,32,40,22,149,,16,,,31,22,,,32*71
$GPRMC,152123.000,A,5538.6954,N,03740.2767,E,0.09,188.90,190919,,,A*61

$GPGGA,152124.000,5538.6953,N,03740.2766,E,1,5,2.05,181.4,M,14.4,M,,*55
$GPGSA,A,3,09,06,03,23,26,,,,,,,,2.26,2.05,0.96*05
$GPGSV,2,1,08,23,84,239,47,03,54,147,41,09,46,259,40,06,39,289,44*7F
$GPGSV,2,2,08,26,27,084,32,40,22,149,,16,,,31,22,,,31*72
$GPRMC,152124.000,A,5538.6953,N,03740.2766,E,0.16,188.90,190919,,,A*6E

$GPGGA,152125.000,5538.6953,N,03740.2766,E,1,5,2.05,181.4,M,14.4,M,,*54
$GPGSA,A,3,09,06,03,23,26,,,,,,,,2.26,2.05,0.96*05
$GPGSV,2,1,08,23,84,239,47,03,54,147,41,09,46,259,40,06,39,289,44*7F
$GPGSV,2,2,08,26,27,084,32,40,22,149,29,16,,,30,22,,,30*79
$GPRMC,152125.000,A,5538.6953,N,03740.2766,E,0.16,188.90,190919,,,A*6F

$GPGGA,152126.000,5538.6953,N,03740.2766,E,1,5,2.05,181.4,M,14.4,M,,*57
$GPGSA,A,3,09,06,03,23,26,,,,,,,,2.26,2.05,0.96*05
$GPGSV,2,1,08,23,84,239,47,03,54,147,41,09,46,259,40,06,39,289,44*7F
$GPGSV,2,2,08,26,27,084,32,40,22,149,29,16,,,30,22,,,31*78
$GPRMC,152126.000,A,5538.6953,N,03740.2766,E,0.05,188.90,190919,,,A*6E

$GPGGA,152127.000,5538.6953,N,03740.2766,E,1,5,2.05,181.4,M,14.4,M,,*56
$GPGSA,A,3,09,06,03,23,26,,,,,,,,2.26,2.05,0.96*05
$GPGSV,2,1,08,23,84,239,47,03,54,147,42,09,46,259,40,06,39,289,44*7C
$GPGSV,2,2,08,26,27,084,32,40,22,149,28,16,,,30,22,,,32*7A
$GPRMC,152127.000,A,5538.6953,N,03740.2766,E,0.01,188.90,190919,,,A*6B

$GPGGA,152128.000,5538.6953,N,03740.2766,E,1,5,2.05,181.5,M,14.4,M,,*58
$GPGSA,A,3,09,06,03,23,26,,,,,,,,2.26,2.05,0.96*05
$GPGSV,2,1,08,23,84,239,47,03,54,147,42,09,46,259,40,06,39,289,44*7C
$GPGSV,2,2,08,26,27,084,32,40,22,149,27,16,,,30,22,,,31*76
$GPRMC,152128.000,A,5538.6953,N,03740.2766,E,0.01,188.90,190919,,,A*64

$GPGGA,152129.000,5538.6953,N,03740.2766,E,1,5,2.05,181.5,M,14.4,M,,*59
$GPGSA,A,3,09,06,03,23,26,,,,,,,,2.27,2.05,0.96*04
$GPGSV,2,1,08,23,84,239,47,03,54,147,42,09,46,259,40,06,39,289,44*7C
$GPGSV,2,2,08,26,27,084,32,40,22,149,27,16,,,30,22,,,31*76
$GPRMC,152129.000,A,5538.6953,N,03740.2766,E,0.02,188.90,190919,,,A*66

$GPGGA,152130.000,5538.6953,N,03740.2766,E,1,5,2.05,181.5,M,14.4,M,,*51
$GPGSA,A,3,09,06,03,23,26,,,,,,,,2.26,2.05,0.96*05
$GPGSV,2,1,08,23,84,239,47,03,54,147,42,09,46,259,41,06,39,289,44*7D
$GPGSV,2,2,08,26,27,084,32,40,22,149,27,16,,,31,22,,,31*77
$GPRMC,152130.000,A,5538.6953,N,03740.2766,E,0.07,188.90,190919,,,A*6B

$GPGGA,152131.000,5538.6953,N,03740.2766,E,1,5,2.05,181.4,M,14.4,M,,*51
$GPGSA,A,3,09,06,03,23,26,,,,,,,,2.26,2.05,0.96*05
$GPGSV,2,1,08,23,84,239,47,03,54,147,41,09,46,259,41,06,39,289,44*7E
$GPGSV,2,2,08,26,27,084,32,40,22,149,28,16,,,32,22,,,31*7B
$GPRMC,152131.000,A,5538.6953,N,03740.2766,E,0.12,188.90,190919,,,A*6E

$GPGGA,152132.000,5538.6952,N,03740.2766,E,1,5,2.05,181.4,M,14.4,M,,*53
$GPGSA,A,3,09,06,03,23,26,,,,,,,,2.26,2.05,0.96*05
$GPGSV,2,1,08,23,84,239,47,03,54,147,40,09,46,259,41,06,39,289,44*7F
$GPGSV,2,2,08,26,27,084,32,40,22,149,29,16,,,33,22,,,30*7A
$GPRMC,152132.000,A,5538.6952,N,03740.2766,E,0.02,188.90,190919,,,A*6D

$GPGGA,152133.000,5538.6952,N,03740.2766,E,1,7,1.57,181.4,M,14.4,M,,*54
$GPGSA,A,3,09,06,03,23,16,26,22,,,,,,1.81,1.57,0.91*0F
$GPGSV,2,1,08,23,84,239,47,03,54,147,40,09,46,259,41,06,39,289,44*7F
$GPGSV,2,2,08,22,33,144,31,26,27,084,32,40,22,149,29,16,16,113,33*7E
$GPRMC,152133.000,A,5538.6952,N,03740.2766,E,0.54,188.90,190919,,,A*6F

$GPGGA,152134.000,5538.6951,N,03740.2767,E,1,7,1.57,181.4,M,14.4,M,,*51
$GPGSA,A,3,09,06,03,23,16,26,22,,,,,,1.81,1.57,0.91*0F
$GPGSV,2,1,08,23,84,239,47,03,54,147,40,09,46,259,42,06,39,289,43*7B
$GPGSV,2,2,08,22,33,144,32,26,27,084,32,40,22,149,29,16,16,113,33*7D
$GPRMC,152134.000,A,5538.6951,N,03740.2767,E,0.56,188.90,190919,,,A*68

$GPGGA,152135.000,5538.6950,N,03740.2766,E,1,7,1.57,181.4,M,14.4,M,,*50
$GPGSA,A,3,09,06,03,23,16,26,22,,,,,,1.81,1.57,0.91*0F
$GPGSV,2,1,08,23,84,239,47,03,54,147,41,09,46,259,42,06,39,289,43*7A
$GPGSV,2,2,08,22,33,144,32,26,27,084,32,40,22,149,29,16,16,113,32*7C
$GPRMC,152135.000,A,5538.6950,N,03740.2766,E,0.40,188.90,190919,,,A*6E

$GPGGA,152136.000,5538.6948,N,03740.2765,E,1,7,1.57,181.4,M,14.4,M,,*59
$GPGSA,A,3,09,06,03,23,16,26,22,,,,,,1.81,1.57,0.91*0F
$GPGSV,2,1,08,23,84,238,47,03,54,147,41,09,46,259,42,06,39,289,43*7B
$GPGSV,2,2,08,22,33,144,32,26,27,084,31,40,22,149,29,16,16,113,32*7F
$GPRMC,152136.000,A,5538.6948,N,03740.2765,E,0.21,188.90,190919,,,A*60

$GPGGA,152137.000,5538.6948,N,03740.2765,E,1,7,1.57,181.4,M,14.4,M,,*58
$GPGSA,A,3,09,06,03,23,16,26,22,,,,,,1.81,1.57,0.91*0F
$GPGSV,2,1,08,23,84,238,47,03,54,147,42,09,46,259,42,06,39,289,43*78
$GPGSV,2,2,08,22,33,144,32,26,27,084,31,40,22,149,29,16,16,113,32*7F
$GPRMC,152137.000,A,5538.6948,N,03740.2765,E,0.01,188.90,190919,,,A*63

$GPGGA,152138.000,5538.6948,N,03740.2765,E,1,7,1.57,181.4,M,14.4,M,,*57
$GPGSA,A,3,09,06,03,23,16,26,22,,,,,,1.81,1.57,0.91*0F
$GPGSV,2,1,08,23,84,238,47,03,54,147,42,09,46,259,43,06,39,289,43*79
$GPGSV,2,2,08,22,33,144,33,26,27,084,31,40,22,149,29,16,16,113,31*7D
$GPRMC,152138.000,A,5538.6948,N,03740.2765,E,0.02,188.90,190919,,,A*6F

$GPGGA,152139.000,5538.6948,N,03740.2765,E,1,7,1.57,181.4,M,14.4,M,,*56
$GPGSA,A,3,09,06,03,23,16,26,22,,,,,,1.81,1.57,0.91*0F
$GPGSV,2,1,08,23,84,238,47,03,54,147,42,09,46,259,43,06,39,289,43*79
$GPGSV,2,2,08,22,33,144,33,26,27,084,31,40,22,149,29,16,16,113,31*7D
$GPRMC,152139.000,A,5538.6948,N,03740.2765,E,0.01,188.90,190919,,,A*6D

$GPGGA,152140.000,5538.6948,N,03740.2765,E,1,7,1.57,181.4,M,14.4,M,,*58
$GPGSA,A,3,09,06,03,23,16,26,22,,,,,,1.81,1.57,0.91*0F
$GPGSV,2,1,08,23,84,238,47,03,54,147,42,09,46,259,43,06,39,289,43*79
$GPGSV,2,2,08,22,33,144,33,26,27,084,31,40,22,149,29,16,16,113,31*7D
$GPRMC,152140.000,A,5538.6948,N,03740.2765,E,0.01,188.90,190919,,,A*63

$GPGGA,152141.000,5538.6948,N,03740.2765,E,1,7,1.57,181.4,M,14.4,M,,*59
$GPGSA,A,3,09,06,03,23,16,26,22,,,,,,1.81,1.57,0.91*0F
$GPGSV,2,1,08,23,84,238,47,03,54,147,42,09,46,259,43,06,39,289,43*79
$GPGSV,2,2,08,22,33,144,33,26,27,084,31,40,22,149,29,16,16,113,31*7D
$GPRMC,152141.000,A,5538.6948,N,03740.2765,E,0.01,188.90,190919,,,A*62

$GPGGA,152142.000,5538.6948,N,03740.2765,E,1,7,1.57,181.4,M,14.4,M,,*5A
$GPGSA,A,3,09,06,03,23,16,26,22,,,,,,1.81,1.57,0.91*0F
$GPGSV,2,1,08,23,84,238,47,03,54,147,42,09,46,259,43,06,39,289,43*79
$GPGSV,2,2,08,22,33,144,34,26,27,084,31,40,22,149,29,16,16,113,31*7A
$GPRMC,152142.000,A,5538.6948,N,03740.2765,E,0.02,188.90,190919,,,A*62

$GPGGA,152143.000,5538.6948,N,03740.2765,E,1,7,1.57,181.3,M,14.4,M,,*5C
$GPGSA,A,3,09,06,03,23,16,26,22,,,,,,1.81,1.57,0.91*0F
$GPGSV,2,1,08,23,84,238,47,03,54,147,42,09,46,259,43,06,39,289,43*79
$GPGSV,2,2,08,22,33,144,34,26,27,084,31,40,22,149,29,16,16,113,31*7A
$GPRMC,152143.000,A,5538.6948,N,03740.2765,E,0.04,188.90,190919,,,A*65

$GPGGA,152144.000,5538.6948,N,03740.2766,E,1,7,1.57,181.3,M,14.4,M,,*58
$GPGSA,A,3,09,06,03,23,16,26,22,,,,,,1.81,1.57,0.91*0F
$GPGSV,2,1,08,23,84,238,47,03,54,147,42,09,46,259,43,06,39,289,43*79
$GPGSV,2,2,08,22,33,144,34,26,27,084,31,40,22,149,28,16,16,113,31*7B
$GPRMC,152144.000,A,5538.6948,N,03740.2766,E,0.09,188.90,190919,,,A*6C

$GPGGA,152145.000,5538.6948,N,03740.2765,E,1,7,1.57,181.3,M,14.4,M,,*5A
$GPGSA,A,3,09,06,03,23,16,26,22,,,,,,1.81,1.57,0.91*0F
$GPGSV,2,1,08,23,84,238,47,03,54,147,42,09,46,259,44,06,39,289,43*7E
$GPGSV,2,2,08,22,33,144,34,26,27,084,31,40,22,149,28,16,16,113,31*7B
$GPRMC,152145.000,A,5538.6948,N,03740.2765,E,0.06,188.90,190919,,,A*61

$GPGGA,152146.000,5538.6948,N,03740.2766,E,1,7,1.57,181.3,M,14.4,M,,*5A
$GPGSA,A,3,09,06,03,23,16,26,22,,,,,,1.81,1.57,0.91*0F
$GPGSV,2,1,08,23,84,238,47,03,54,147,42,09,46,259,44,06,39,289,43*7E
$GPGSV,2,2,08,22,33,144,34,26,27,084,29,40,22,149,28,16,16,113,31*72
$GPRMC,152146.000,A,5538.6948,N,03740.2766,E,0.02,188.90,190919,,,A*65

$GPGGA,152147.000,5538.6948,N,03740.2766,E,1,7,1.57,181.3,M,14.4,M,,*5B
$GPGSA,A,3,09,06,03,23,16,26,22,,,,,,1.81,1.57,0.91*0F
$GPGSV,2,1,08,23,84,238,47,03,54,147,42,09,46,259,45,06,39,289,43*7F
$GPGSV,2,2,08,22,33,144,34,26,27,084,29,40,22,149,28,16,16,113,32*71
$GPRMC,152147.000,A,5538.6948,N,03740.2766,E,0.01,188.90,190919,,,A*67

$GPGGA,152148.000,5538.6948,N,03740.2766,E,1,7,1.57,181.3,M,14.4,M,,*54
$GPGSA,A,3,09,06,03,23,16,26,22,,,,,,1.81,1.57,0.91*0F
$GPGSV,2,1,08,23,84,238,47,03,54,147,42,09,46,259,45,06,39,289,43*7F
$GPGSV,2,2,08,22,33,144,34,26,27,084,29,40,22,149,28,16,16,113,32*71
$GPRMC,152148.000,A,5538.6948,N,03740.2766,E,0.03,188.90,190919,,,A*6A

$GPGGA,152149.000,5538.6948,N,03740.2766,E,1,7,1.57,181.3,M,14.4,M,,*55
$GPGSA,A,3,09,06,03,23,16,26,22,,,,,,1.81,1.57,0.91*0F
$GPGSV,2,1,08,23,84,238,47,03,54,147,42,09,46,259,45,06,39,289,43*7F
$GPGSV,2,2,08,22,33,144,34,26,27,084,29,40,22,149,28,16,16,113,32*71
$GPRMC,152149.000,A,5538.6948,N,03740.2766,E,0.02,188.90,190919,,,A*6A

$GPGGA,152150.000,5538.6948,N,03740.2766,E,1,7,1.57,181.3,M,14.4,M,,*5D
$GPGSA,A,3,09,06,03,23,16,26,22,,,,,,1.81,1.57,0.91*0F
$GPGSV,2,1,08,23,84,238,47,03,54,147,42,09,46,259,45,06,39,289,43*7F
$GPGSV,2,2,08,22,33,144,34,26,27,084,29,40,22,149,28,16,16,113,32*71
$GPRMC,152150.000,A,5538.6948,N,03740.2766,E,0.02,188.90,190919,,,A*62

$GPGGA,152151.000,5538.6948,N,03740.2766,E,1,7,1.57,181.3,M,14.4,M,,*5C
$GPGSA,A,3,09,06,03,23,16,26,22,,,,,,1.81,1.57,0.91*0F
$GPGSV,2,1,08,23,84,238,47,03,54,147,42,09,46,259,45,06,39,289,43*7F
$GPGSV,2,2,08,22,33,144,34,26,27,084,28,40,22,149,28,16,16,113,32*70
$GPRMC,152151.000,A,5538.6948,N,03740.2766,E,0.25,188.90,190919,,,A*66

$GPGGA,152152.000,5538.6948,N,03740.2765,E,1,7,1.56,181.3,M,14.4,M,,*5D
$GPGSA,A,3,09,06,03,23,16,26,22,,,,,,1.81,1.56,0.91*0E
$GPGSV,2,1,08,23,84,238,46,03,54,147,42,09,46,259,45,06,39,289,43*7E
$GPGSV,2,2,08,22,33,144,34,26,27,084,29,40,22,149,28,16,16,113,32*71
$GPRMC,152152.000,A,5538.6948,N,03740.2765,E,0.18,188.90,190919,,,A*68

$GPGGA,152153.000,5538.6949,N,03740.2764,E,1,7,1.57,181.3,M,14.4,M,,*5D
$GPGSA,A,3,09,06,03,23,16,26,22,,,,,,1.81,1.57,0.91*0F
$GPGSV,2,1,08,23,84,238,46,03,54,147,42,09,46,259,45,06,39,289,43*7E
$GPGSV,2,2,08,22,33,144,34,26,27,084,29,40,22,149,28,16,16,113,32*71
$GPRMC,152153.000,A,5538.6949,N,03740.2764,E,0.05,188.90,190919,,,A*65

$GPGGA,152154.000,5538.6949,N,03740.2764,E,1,7,1.56,181.2,M,14.4,M,,*5A
$GPGSA,A,3,09,06,03,23,16,26,22,,,,,,1.81,1.56,0.91*0E
$GPGSV,2,1,08,23,84,238,46,03,54,147,42,09,46,259,45,06,39,289,43*7E
$GPGSV,2,2,08,22,33,144,35,26,27,084,29,40,22,149,28,16,16,113,32*70
$GPRMC,152154.000,A,5538.6949,N,03740.2764,E,0.03,188.90,190919,,,A*64

$GPGGA,152155.000,5538.6949,N,03740.2764,E,1,7,1.56,181.2,M,14.4,M,,*5B
$GPGSA,A,3,09,06,03,23,16,26,22,,,,,,1.81,1.56,0.91*0E
$GPGSV,2,1,08,23,84,238,46,03,54,147,42,09,46,259,45,06,39,288,43*7F
$GPGSV,2,2,08,22,33,144,34,26,27,084,29,40,22,149,29,16,16,113,32*70
$GPRMC,152155.000,A,5538.6949,N,03740.2764,E,0.04,188.90,190919,,,A*62

$GPGGA,152156.000,5538.6949,N,03740.2764,E,1,7,1.56,181.2,M,14.4,M,,*58
$GPGSA,A,3,09,06,03,23,16,26,22,,,,,,1.81,1.56,0.91*0E
$GPGSV,2,1,08,23,84,238,47,03,54,147,42,09,46,259,45,06,39,288,43*7E
$GPGSV,2,2,08,22,33,144,34,26,27,084,29,40,22,149,29,16,16,113,32*70
$GPRMC,152156.000,A,5538.6949,N,03740.2764,E,0.02,188.90,190919,,,A*67

$GPGGA,152157.000,5538.6949,N,03740.2764,E,1,7,1.56,181.2,M,14.4,M,,*59
$GPGSA,A,3,09,06,03,23,16,26,22,,,,,,1.81,1.56,0.91*0E
$GPGSV,2,1,08,23,84,238,47,03,54,147,42,09,46,259,45,06,39,288,43*7E
$GPGSV,2,2,08,22,33,144,34,26,27,084,29,40,22,149,29,16,16,113,32*70
$GPRMC,152157.000,A,5538.6949,N,03740.2764,E,0.01,188.90,190919,,,A*65

$GPGGA,152158.000,5538.6949,N,03740.2764,E,1,7,1.56,181.2,M,14.4,M,,*56
$GPGSA,A,3,09,06,03,23,16,26,22,,,,,,1.81,1.56,0.91*0E
$GPGSV,2,1,08,23,84,238,47,03,54,147,42,09,47,259,45,06,39,288,43*7F
$GPGSV,2,2,08,22,33,144,33,26,27,084,28,40,22,149,29,16,16,113,32*76
$GPRMC,152158.000,A,5538.6949,N,03740.2764,E,0.10,188.90,190919,,,A*6A

$GPGGA,152159.000,5538.6949,N,03740.2765,E,1,7,1.56,181.2,M,14.4,M,,*56
$GPGSA,A,3,09,06,03,23,16,26,22,,,,,,1.81,1.56,0.91*0E
$GPGSV,2,1,08,23,84,238,47,03,54,147,42,09,47,259,45,06,39,288,43*7F
$GPGSV,2,2,08,22,33,144,33,26,27,084,27,40,22,149,29,16,16,113,32*79
$GPRMC,152159.000,A,5538.6949,N,03740.2765,E,0.86,182.15,190919,,,A*62

